,busNumber,busroute,company,date,fromBusstopPole,lat,long,toBusstopPole
0,737,Kitaura03,SeibuBus,2019-09-05T08:26:27+09:00,Suzuyafudanotsuji.120175.2,35.87162825523894,139.6454227116394,Minamiyonoekikitairiguchi.120174.2
1,737,Kitaura03,SeibuBus,2019-09-05T08:26:40+09:00,Minamiyonoekikitairiguchi.120174.2,35.871077542295225,139.64467986375428,Suzuyashougakkou.120173.2
2,737,Kitaura03,SeibuBus,2019-09-05T08:27:31+09:00,Suzuyashougakkou.120173.2,35.87016992685286,139.63305145998004,Ootoshougakkou.120172.2
3,737,Kitaura03,SeibuBus,2019-09-05T08:27:56+09:00,Suzuyashougakkou.120173.2,35.87047394969891,139.62530954330828,Ootoshougakkou.120172.2
4,737,Kitaura03,SeibuBus,2019-09-05T08:28:21+09:00,Ootoshougakkou.120172.2,35.86549568362219,139.60732756183245,Tokiwajucchoume.120171.2
5,737,Kitaura03,SeibuBus,2019-09-05T08:28:45+09:00,Tokiwajucchoume.120171.2,35.865190209710434,139.60737670304104,Kitaurawaeki.120158.0
