,busNumber,busroute,company,date,fromBusstopPole,lat,long,toBusstopPole
0,871,Kiyoshi03-1,SeibuBus,2019-09-05T08:26:05+09:00,Nishidanchiiriguchi.60049.4,35.755568293365506,139.4981450846558,Kurumenishidanchi.60050.3
1,871,Kiyoshi03-1,SeibuBus,2019-09-05T08:27:02+09:00,Nishidanchiiriguchi.60049.4,35.75400308411551,139.50111061111454,Kurumenishidanchi.60050.3
2,871,Kiyoshi03-1,SeibuBus,2019-09-05T08:27:31+09:00,Nishidanchiiriguchi.60049.4,35.752259827995495,139.49806145767207,Kurumenishidanchi.60050.3
3,871,Kiyoshi03-1,SeibuBus,2019-09-05T08:27:58+09:00,Yanagikuboicchoume.60057.2,35.74977349350505,139.49610593121338,Takiyamadanchinishi.60056.2
4,871,Kiyoshi03-1,SeibuBus,2019-09-05T08:28:33+09:00,Kurumenishidanchi.60050.3,35.74165350218171,139.51368476322932,Yanagikuboicchoume.60057.2
5,871,Kiyoshi03-1,SeibuBus,2019-09-05T08:28:42+09:00,Yanagikuboicchoume.60057.2,35.73049925627997,139.5123306587219,Takiyamadanchinishi.60056.2
6,871,Kiyoshi03-1,SeibuBus,2019-09-05T08:30:00+09:00,Takiyamadanchinishi.60056.2,35.73031353176631,139.5148772883606,Takiyamadanchi.60045.3
7,871,Kiyoshi03-1,SeibuBus,2019-09-05T08:30:29+09:00,Takiyamadanchi.60045.3,35.72862880937317,139.51466820503242,Takiyamagochoume.60044.3
8,871,Kiyoshi03-1,SeibuBus,2019-09-05T08:30:56+09:00,Takiyamadanchi.60045.3,35.726545968689194,139.51384156085203,Takiyamagochoume.60044.3
